{"type": "FeatureCollection", "features": [{"type": "Feature", "properties": {"id": "c708ca83-4972-490e-b5dc-c0b77defcf8a", "name": "Cap's Bar", "category": "bar", "confidence": 0.9388740675067667, "address": "9 Rue Bon Secours"}, "geometry": {"type": "Point", "coordinates": [-1.5538427, 47.21361851]}}, {"type": "Feature", "properties": {"id": "75264a93-60cf-43a5-a586-f29d19c42874", "name": "Parking Feydeau", "category": "parking", "confidence": 0.9859410355265563, "address": "Cr Commandant d'Estienne d'Orves"}, "geometry": {"type": "Point", "coordinates": [-1.55233326, 47.21359585]}}, {"type": "Feature", "properties": {"id": "474f08ea-c0ab-45d8-90e8-4131e4aa815c", "name": "Zazou", "category": "beer_garden", "confidence": 0.9388740675067667, "address": "3 Quai Turenne"}, "geometry": {"type": "Point", "coordinates": [-1.5538015, 47.21313944]}}, {"type": "Feature", "properties": {"id": "b820eb21-87b7-4a91-90b8-889a1c60599f", "name": "Tree House", "category": "bakery", "confidence": 0.77, "address": "3 rue Bon Secours"}, "geometry": {"type": "Point", "coordinates": [-1.5537010248489318, 47.21388504419431]}}, {"type": "Feature", "properties": {"id": "56f07cc7-1798-49d6-8626-2be837d03b77", "name": "La Fabrik \u00e0 Jeux", "category": "restaurant", "confidence": 0.9859410355265563, "address": "1B Quai Turenne"}, "geometry": {"type": "Point", "coordinates": [-1.55357016, 47.21322551]}}, {"type": "Feature", "properties": {"id": "28a8b743-4568-4a7e-a992-92c757830075", "name": "Le Cascabel", "category": "bar", "confidence": 0.9859410355265563, "address": "1 Rue Kerv\u00e9gan"}, "geometry": {"type": "Point", "coordinates": [-1.55296606, 47.21367891]}}, {"type": "Feature", "properties": {"id": "42c20be1-3d69-440f-ada2-21974b8c85f9", "name": "Canc\u00e9rop\u00f4le Grand Ouest", "category": "hospital", "confidence": 0.9657719329850477, "address": "3 Chauss\u00e9e de la Madeleine"}, "geometry": {"type": "Point", "coordinates": [-1.552257, 47.21209]}}, {"type": "Feature", "properties": {"id": "d15c087f-a294-4280-bf10-c45c6902a832", "name": "La Fourmi", "category": "cafe", "confidence": 0.77, "address": "1 Chauss\u00e9e de la Madeleine"}, "geometry": {"type": "Point", "coordinates": [-1.5524896838107771, 47.212296305212746]}}, {"type": "Feature", "properties": {"id": "8eb86ec8-29a3-4485-bf85-4c7b98e1f817", "name": "Le Chemin de Traverse", "category": "beer_bar", "confidence": 0.9388740675067667, "address": "2B Rue Bon Secours"}, "geometry": {"type": "Point", "coordinates": [-1.55404157, 47.21355341]}}, {"type": "Feature", "properties": {"id": "c60b845c-9b4d-4dbe-bc82-37cf8c3efb83", "name": "ESPACE UNICC CENTRE PAYS DE LOIRE", "category": "banks", "confidence": 0.4, "address": "4 ALLEE DE TURENNE"}, "geometry": {"type": "Point", "coordinates": [-1.5539537, 47.2130904]}}, {"type": "Feature", "properties": {"id": "c983bda1-b4bc-4a0b-9988-3abb93b71402", "name": "Sepia", "category": "french_restaurant", "confidence": 0.9859410355265563, "address": "1 Quai Turenne"}, "geometry": {"type": "Point", "coordinates": [-1.55339953, 47.213272]}}, {"type": "Feature", "properties": {"id": "7922a05d-b39e-4ce2-886a-f24ca2c939b7", "name": "The Green Sheep", "category": "pub", "confidence": 0.9388740675067667, "address": "6 Rue Bon Secours"}, "geometry": {"type": "Point", "coordinates": [-1.55374196, 47.21353513]}}, {"type": "Feature", "properties": {"id": "af751495-624e-46b9-b9c6-795789201534", "name": "Boulangerie La Fourmi", "category": "bakery", "confidence": 0.9388740675067667, "address": "1 Chauss\u00e9e de la Madeleine"}, "geometry": {"type": "Point", "coordinates": [-1.55255501, 47.2123947]}}, {"type": "Feature", "properties": {"id": "333b2a0a-f4cd-46ac-b34d-55b84dd3b0dc", "name": "ClinicPilot", "category": "shopping", "confidence": 0.9764705882352941, "address": null}, "geometry": {"type": "Point", "coordinates": [-1.5536962, 47.21243]}}, {"type": "Feature", "properties": {"id": "f6b96b53-71e6-4205-921e-ee2a53ce7307", "name": "Carr\u00e9 Feydeau", "category": "landmark_and_historical_building", "confidence": 0.9367283950617284, "address": "19 Parvis Neptune"}, "geometry": {"type": "Point", "coordinates": [-1.55220123, 47.21388821]}}, {"type": "Feature", "properties": {"id": "804ad5bf-2ff5-4841-bdf7-2a5fc3244f64", "name": "Le Tapazinc", "category": "bar", "confidence": 0.9921275445865609, "address": "15 Rue Bon Secours"}, "geometry": {"type": "Point", "coordinates": [-1.553383, 47.213517]}}, {"type": "Feature", "properties": {"id": "e86723b2-0ccc-40cd-a0a4-0a04fa3a7ced", "name": "Les Armateurs", "category": "hotel", "confidence": 0.9367283950617284, "address": "quai turenne"}, "geometry": {"type": "Point", "coordinates": [-1.554576, 47.212854]}}, {"type": "Feature", "properties": {"id": "0287ba8a-5bb0-425e-9044-fcb38fc3707a", "name": "Le Track N'art", "category": "bar", "confidence": 0.9388740675067667, "address": "13 Rue Bon Secours"}, "geometry": {"type": "Point", "coordinates": [-1.55339983, 47.21341117]}}, {"type": "Feature", "properties": {"id": "a9ff86ab-10ee-455c-9dd0-c7c5db87be6e", "name": "Dakoo Nantes", "category": "korean_restaurant", "confidence": 0.9388740675067667, "address": "17 Rue Bon Secours"}, "geometry": {"type": "Point", "coordinates": [-1.55318203, 47.21325833]}}, {"type": "Feature", "properties": {"id": "bffd598e-a9e0-4908-af00-c162f12ad3cf", "name": "le Big Ben", "category": "bar", "confidence": 0.77, "address": "1 Rue Kervegan"}, "geometry": {"type": "Point", "coordinates": [-1.5531718239064147, 47.21376021857841]}}, {"type": "Feature", "properties": {"id": "861ca11c-1b46-4fb0-a598-29127be13049", "name": "Yo.Gout", "category": "frozen_yoghurt_shop", "confidence": 0.9388740675067667, "address": "2 All\u00e9e Duguay-Trouin"}, "geometry": {"type": "Point", "coordinates": [-1.55419231, 47.21384673]}}, {"type": "Feature", "properties": {"id": "e9bb147e-a811-4d4c-89d4-6cba494a1a2b", "name": "Bo V\u00e9lo", "category": "bicycle_shop", "confidence": 0.77, "address": "3 Cours Olivier de Clisson"}, "geometry": {"type": "Point", "coordinates": [-1.5542149155514282, 47.21322256443168]}}, {"type": "Feature", "properties": {"id": "3cb21c85-5163-4e24-8ede-b475f2594e5b", "name": "Le Shake Point", "category": "bar", "confidence": 0.9388740675067667, "address": "2 All\u00e9e Duguay-Trouin"}, "geometry": {"type": "Point", "coordinates": [-1.55424001, 47.21379356]}}, {"type": "Feature", "properties": {"id": "a5c6d51e-ccb9-45d0-9bee-8f87dc475acb", "name": "Tierra Maya", "category": "mexican_restaurant", "confidence": 0.9388740675067667, "address": "6 Rue Kerv\u00e9gan"}, "geometry": {"type": "Point", "coordinates": [-1.55417189, 47.21344886]}}, {"type": "Feature", "properties": {"id": "b75d42e9-3048-4a52-9af6-ebc78463d7bb", "name": "Chapelle Notre-Dame-de-Bonsecours", "category": "landmark_and_historical_building", "confidence": 0.9657719329850477, "address": ""}, "geometry": {"type": "Point", "coordinates": [-1.55355, 47.2133]}}, {"type": "Feature", "properties": {"id": "445124e6-bea2-412c-9b30-f3d9cd7b05a6", "name": "Bombay", "category": "indian_restaurant", "confidence": 0.9859410355265563, "address": "6B Rue Kerv\u00e9gan"}, "geometry": {"type": "Point", "coordinates": [-1.55414015, 47.21347322]}}, {"type": "Feature", "properties": {"id": "957d55eb-ec46-46c7-bef3-6e8e2b8d51dd", "name": "M\u00e9lomane", "category": "music_and_dvd_store", "confidence": 0.9388740675067667, "address": "2 Quai Turenne"}, "geometry": {"type": "Point", "coordinates": [-1.55375082, 47.21306128]}}, {"type": "Feature", "properties": {"id": "519e8d1e-a818-42f3-b567-5cdf5678efac", "name": "Place Alexis Ricordeau", "category": "public_plaza", "confidence": 0.9388740675067667, "address": ""}, "geometry": {"type": "Point", "coordinates": [-1.55354286, 47.21220635]}}, {"type": "Feature", "properties": {"id": "fda817dd-ab4e-43c5-a131-7da3c79d5734", "name": "Seoul Vitoky", "category": "restaurant", "confidence": 0.77, "address": "4 rue du Bon Secours"}, "geometry": {"type": "Point", "coordinates": [-1.5538815002938866, 47.21370100410677]}}, {"type": "Feature", "properties": {"id": "62c5d56e-7e8a-408b-9b71-f9146a5448c5", "name": "Le Paradis du Fruit", "category": "restaurant", "confidence": 0.9921275445865609, "address": "5 Cours Olivier de Clisson"}, "geometry": {"type": "Point", "coordinates": [-1.554475, 47.213539]}}, {"type": "Feature", "properties": {"id": "66eed7cf-e6a2-4859-bdb4-564d64cc1ca2", "name": "Les Berthom", "category": "bar", "confidence": 0.9859410355265563, "address": "1B Cours Olivier de Clisson"}, "geometry": {"type": "Point", "coordinates": [-1.55445898, 47.21341553]}}, {"type": "Feature", "properties": {"id": "ca0da542-9ecb-49ad-9050-fd82c314374e", "name": "Rue L\u00e9on-Ma\u00eetre", "category": "landmark_and_historical_building", "confidence": 0.9657719329850477, "address": null}, "geometry": {"type": "Point", "coordinates": [-1.5530366, 47.2138476]}}, {"type": "Feature", "properties": {"id": "638c36dd-ebff-4759-9b86-9d37db15f1a3", "name": "FTO - Voyages Sur-Mesure Inde & Asie", "category": "travel_services", "confidence": 0.9388740675067667, "address": "3 Quai Turenne"}, "geometry": {"type": "Point", "coordinates": [-1.55386267, 47.21311787]}}, {"type": "Feature", "properties": {"id": "ed5f4dfc-ae34-4b8e-b566-1aa42a19e296", "name": "P\u00e9pette", "category": "used_vintage_and_consignment", "confidence": 0.9388740675067667, "address": "8 Quai Turenne"}, "geometry": {"type": "Point", "coordinates": [-1.5544666, 47.21285626]}}, {"type": "Feature", "properties": {"id": "34a1c454-9f92-4646-99b1-20a93af84437", "name": "Supexam Nantes", "category": "school", "confidence": 0.9388740675067667, "address": "1 Chauss\u00e9e de la Madeleine"}, "geometry": {"type": "Point", "coordinates": [-1.55251661, 47.21226859]}}, {"type": "Feature", "properties": {"id": "c325c7a0-1a06-4887-9178-fc1f18608ca2", "name": "Commissariat de Police de Nantes", "category": "police_department", "confidence": 0.9859410355265563, "address": "5 Cours Olivier de Clisson"}, "geometry": {"type": "Point", "coordinates": [-1.55408343, 47.21305382]}}, {"type": "Feature", "properties": {"id": "ad62530d-8953-47be-a7fe-7ad0551bca5d", "name": "De Dannan Celtic Pub", "category": "pub", "confidence": 0.9859410355265563, "address": "2 Rue Kerv\u00e9gan"}, "geometry": {"type": "Point", "coordinates": [-1.55309759, 47.21367632]}}, {"type": "Feature", "properties": {"id": "2551a8af-da5c-4bcc-94cd-d02efb6cde29", "name": "Comme Avant Nantes", "category": "cosmetic_and_beauty_supplies", "confidence": 0.9388740675067667, "address": "2 Quai Turenne"}, "geometry": {"type": "Point", "coordinates": [-1.5538172, 47.2132305]}}, {"type": "Feature", "properties": {"id": "80a35558-d17a-4b90-8e18-68a7ed2375e0", "name": "Neutral Ground Theatre", "category": "theatre", "confidence": 0.9388740675067667, "address": "11 All\u00e9e de la Maison Rouge"}, "geometry": {"type": "Point", "coordinates": [-1.551985, 47.21259662]}}, {"type": "Feature", "properties": {"id": "f8fb408d-27f1-4603-9065-16638ec09dd4", "name": "Little Cesar", "category": "restaurant", "confidence": 0.9367283950617284, "address": "7 Rue Bon Secours"}, "geometry": {"type": "Point", "coordinates": [-1.55367, 47.2138]}}, {"type": "Feature", "properties": {"id": "4c4fe83f-b5ac-415e-9f53-50e0fb60bf9b", "name": "The Frenchie - restaurant sur r\u00e9servation", "category": "french_restaurant", "confidence": 0.9859410355265563, "address": "4 Rue Bon Secours"}, "geometry": {"type": "Point", "coordinates": [-1.55408426, 47.21349133]}}, {"type": "Feature", "properties": {"id": "6a196934-c3d1-4600-a92f-94e7ff889c13", "name": "Coleslaw", "category": "shopping", "confidence": 0.9367283950617284, "address": "13 Rue Bon Secours"}, "geometry": {"type": "Point", "coordinates": [-1.55346, 47.21351]}}, {"type": "Feature", "properties": {"id": "d4a7a99b-0130-449b-9676-a9bafd83a57f", "name": "Bar le Big Ben", "category": "bar", "confidence": 0.9388740675067667, "address": "1 Rue Kerv\u00e9gan"}, "geometry": {"type": "Point", "coordinates": [-1.55329714, 47.21363895]}}, {"type": "Feature", "properties": {"id": "91d263b3-6864-4d80-b71d-80e12b08336b", "name": "Les Bouch\u00e9es de la Reine", "category": "fast_food_restaurant", "confidence": 0.9367283950617284, "address": "Place Alexis Ricordeau"}, "geometry": {"type": "Point", "coordinates": [-1.55319, 47.2125206]}}, {"type": "Feature", "properties": {"id": "0d5f775e-e74e-4c9b-ad2a-a4947596f304", "name": "Boitbrutt and Kreptar", "category": "pancake_house", "confidence": 0.9388740675067667, "address": "15 Rue Bon Secours"}, "geometry": {"type": "Point", "coordinates": [-1.55325287, 47.21330659]}}, {"type": "Feature", "properties": {"id": "0a60cecc-1bf5-4714-9c5f-cdd2573c01e8", "name": "La Vache Nantaise", "category": "french_restaurant", "confidence": 0.9859410355265563, "address": "11 Rue Bon Secours"}, "geometry": {"type": "Point", "coordinates": [-1.55352554, 47.2135733]}}, {"type": "Feature", "properties": {"id": "2668bc1e-2495-41e0-8323-ba2347f1052e", "name": "LE Village", "category": "community_services_non_profits", "confidence": 0.9657719329850477, "address": "kervegan, quai de turennes, bonsecours, leon ma\u00eetre, duguay trouin"}, "geometry": {"type": "Point", "coordinates": [-1.5536462812259446, 47.21366290152238]}}, {"type": "Feature", "properties": {"id": "c8acbe0d-ea52-44d2-8b75-7a89a17aa66a", "name": "Mimosa Brunch & P\u00e2tisseries ", "category": "breakfast_and_brunch_restaurant", "confidence": 0.9367283950617284, "address": "7 Rue Bon Secours"}, "geometry": {"type": "Point", "coordinates": [-1.553526, 47.213851]}}, {"type": "Feature", "properties": {"id": "ec8424c3-dc25-48ae-882c-52ac4da37257", "name": "L'Embuscade", "category": "bar", "confidence": 0.9388740675067667, "address": "1 Quai Turenne"}, "geometry": {"type": "Point", "coordinates": [-1.5530879, 47.21330125]}}, {"type": "Feature", "properties": {"id": "c3b2dcae-5daa-44be-880d-295ab5c7f6fb", "name": "Freshcut Nantes", "category": "barber", "confidence": 0.9388740675067667, "address": "Carr\u00e9 faydeau, 1 Cr Commandant d'Estienne d'Orves"}, "geometry": {"type": "Point", "coordinates": [-1.55265129, 47.21363469]}}], "metadata": {"theme": "places", "total": 50, "bbox": [-1.5545861652507147, 47.21208698597856, -1.551941253605616, 47.213883608328544], "query_params": {"theme": "places", "radius_m": 100, "center_lon": -1.5532637094281654, "center_lat": 47.21298529715355, "xmin": -1.5545861652507147, "xmax": -1.551941253605616, "ymin": 47.21208698597856, "ymax": 47.213883608328544}}}