{"type": "FeatureCollection", "features": [{"type": "Feature", "properties": {"id": "44de1209-c0b5-4fcd-9661-c5e3a49fdcc3", "name": "Aletinetine", "category": "restaurant", "confidence": 0.9859410355265563, "address": "9 Rue Danton"}, "geometry": {"type": "Point", "coordinates": [2.34135934, 48.85234521]}}, {"type": "Feature", "properties": {"id": "339f2b95-7ad0-49ed-8037-838486e47a26", "name": "Chongqing Noodles", "category": "restaurant", "confidence": 0.9657719329850477, "address": "22 Rue du Pont Neuf"}, "geometry": {"type": "Point", "coordinates": [2.34477, 48.8607]}}, {"type": "Feature", "properties": {"id": "8af1fbf9-5933-4ac3-89e5-d9b525c8acec", "name": "4Web Les Halles", "category": "restaurant", "confidence": 0.9388740675067667, "address": "15 Rue des Halles"}, "geometry": {"type": "Point", "coordinates": [2.34627645, 48.86013465]}}, {"type": "Feature", "properties": {"id": "1d42ebe4-c19a-4959-8979-c32f80e733bc", "name": "Stand Up Paris", "category": "restaurant", "confidence": 0.9388740675067667, "address": "15 Boulevard Saint-Germain"}, "geometry": {"type": "Point", "coordinates": [2.35371506, 48.84940606]}}, {"type": "Feature", "properties": {"id": "76481a5f-c775-40e3-bb61-f5b8db8110b0", "name": "Fondation Azzedine Ala\u00efa", "category": "restaurant", "confidence": 0.9921275445865609, "address": "18 Rue de la Verrerie"}, "geometry": {"type": "Point", "coordinates": [2.35486, 48.85732]}}, {"type": "Feature", "properties": {"id": "2abba734-6beb-440c-9f3e-145d8de092e6", "name": "Brasserie des Archives", "category": "restaurant", "confidence": 0.9657719329850477, "address": "15 Rue des Archives"}, "geometry": {"type": "Point", "coordinates": [2.35488, 48.85826]}}, {"type": "Feature", "properties": {"id": "739bd9ac-26cf-44f0-b866-a5af2c9e52b6", "name": "Cousine Traditionnelle", "category": "restaurant", "confidence": 0.9657719329850477, "address": "21 Rue de la Harpe"}, "geometry": {"type": "Point", "coordinates": [2.34462228, 48.85232679]}}, {"type": "Feature", "properties": {"id": "359e8cb5-b81b-4eb7-a959-9af0aec6f07e", "name": "sourcerestaurant", "category": "restaurant", "confidence": 0.9657719329850477, "address": "17 Rue Gr\u00e9goire de Tours"}, "geometry": {"type": "Point", "coordinates": [2.33795, 48.852988]}}, {"type": "Feature", "properties": {"id": "14167c6f-2819-4dd2-96ba-64eeafad2f72", "name": "Chez Alexandre", "category": "restaurant", "confidence": 0.9388740675067667, "address": "16 Rue du Louvre"}, "geometry": {"type": "Point", "coordinates": [2.34129575, 48.86110603]}}, {"type": "Feature", "properties": {"id": "b89db98d-c657-4082-a6cf-9295a62157b8", "name": "Golden Food", "category": "restaurant", "confidence": 0.9388740675067667, "address": "11 Rue de la Harpe"}, "geometry": {"type": "Point", "coordinates": [2.3446686, 48.85270951]}}, {"type": "Feature", "properties": {"id": "91c7dbc4-26ce-4786-96b0-267a21e183e5", "name": "Premi\u00e8re Classe Roissy", "category": "restaurant", "confidence": 0.77, "address": "53 avenue des Nations"}, "geometry": {"type": "Point", "coordinates": [2.3521899250575147, 48.85660962824133]}}, {"type": "Feature", "properties": {"id": "151397b9-7f73-443a-a039-9a60b05dfbe6", "name": "SURFACE - Le Georges", "category": "restaurant", "confidence": 0.9367283950617284, "address": "Place Georges Pompidou, 120 Rue Saint-Martin"}, "geometry": {"type": "Point", "coordinates": [2.35151, 48.86004]}}, {"type": "Feature", "properties": {"id": "da117880-0d5e-403c-af14-e5f59ab48a78", "name": "ATRIA Paris", "category": "restaurant", "confidence": 0.9657719329850477, "address": "47 Rue Berger"}, "geometry": {"type": "Point", "coordinates": [2.3424, 48.86212]}}, {"type": "Feature", "properties": {"id": "d809694b-ab7d-4287-86bd-3a2d2391b1f0", "name": "Les Deux Th\u00e9\u00e2tres", "category": "restaurant", "confidence": 0.9388740675067667, "address": "10 Avenue Victoria"}, "geometry": {"type": "Point", "coordinates": [2.34954862, 48.85738468]}}, {"type": "Feature", "properties": {"id": "2637b36f-ff96-41de-afa5-6f22f3b7cbbd", "name": "Le Paradis", "category": "restaurant", "confidence": 0.9859410355265563, "address": "76 Rue Saint-Martin"}, "geometry": {"type": "Point", "coordinates": [2.35021457, 48.85889893]}}, {"type": "Feature", "properties": {"id": "169ff5b7-75a2-46e9-8403-6b8936afa0aa", "name": "O Grillador Xavier Privas", "category": "restaurant", "confidence": 0.9388740675067667, "address": "11 Rue Xavier Privas"}, "geometry": {"type": "Point", "coordinates": [2.3454199, 48.85268266]}}, {"type": "Feature", "properties": {"id": "0585509b-c2ad-406c-b047-6e8dd1ba6a86", "name": "Wallabies", "category": "restaurant", "confidence": 0.9367283950617284, "address": "18 Rue Saint-Denis"}, "geometry": {"type": "Point", "coordinates": [2.347935, 48.859381]}}, {"type": "Feature", "properties": {"id": "9b3febb6-c115-4542-8e8f-2945e05de366", "name": "La Cave Se Rebiffe", "category": "restaurant", "confidence": 0.9367283950617284, "address": "7 Rue des Orf\u00e8vres"}, "geometry": {"type": "Point", "coordinates": [2.345364, 48.858404]}}, {"type": "Feature", "properties": {"id": "96b9ff7e-472a-4b67-b134-68c9489cceea", "name": "3.6.9", "category": "restaurant", "confidence": 0.9367283950617284, "address": "11 Rue de la Ferronnerie"}, "geometry": {"type": "Point", "coordinates": [2.34768, 48.86018]}}, {"type": "Feature", "properties": {"id": "3eec1cbe-d68e-47f0-8b95-3e9aa219ba9f", "name": "Coquelicot", "category": "restaurant", "confidence": 0.77, "address": null}, "geometry": {"type": "Point", "coordinates": [2.3458953, 48.857613]}}, {"type": "Feature", "properties": {"id": "43163a00-a634-43aa-bdab-fcc19183db02", "name": "Restau", "category": "restaurant", "confidence": 0.9388740675067667, "address": "6 Rue Boutebrie"}, "geometry": {"type": "Point", "coordinates": [2.3458242, 48.85115898]}}, {"type": "Feature", "properties": {"id": "b133dad5-6f3f-4318-9bad-f472db333268", "name": "Roba Seria", "category": "restaurant", "confidence": 0.9367283950617284, "address": "13 Rue des Lavandi\u00e8res Sainte-Opportune"}, "geometry": {"type": "Point", "coordinates": [2.345852, 48.858642]}}, {"type": "Feature", "properties": {"id": "5730d50f-8c97-4d49-bc8d-5472e901e0b1", "name": "La Table de Fabrice", "category": "restaurant", "confidence": 0.77, "address": "15 quai de la Tournelle"}, "geometry": {"type": "Point", "coordinates": [2.3550835771824308, 48.84974992797683]}}, {"type": "Feature", "properties": {"id": "2e657efb-4d75-405f-9750-f2cc0e4d462f", "name": "Briscola Paris", "category": "restaurant", "confidence": 0.9657719329850477, "address": "8 Rue Laplace"}, "geometry": {"type": "Point", "coordinates": [2.34772, 48.84729]}}, {"type": "Feature", "properties": {"id": "5aecc29c-9632-4117-a8ad-2157589907f8", "name": "Le Diamant Bleu - Ev\u00e9nementiel", "category": "restaurant", "confidence": 0.9764705882352941, "address": "2 Rue du Ranelagh"}, "geometry": {"type": "Point", "coordinates": [2.3414, 48.85717]}}, {"type": "Feature", "properties": {"id": "657b7745-8325-4c86-9a2d-b8c6712da609", "name": "Le relais de Strasbourg - Paris", "category": "restaurant", "confidence": 0.9367283950617284, "address": "1 Rue Jean-Jacques Rousseau"}, "geometry": {"type": "Point", "coordinates": [2.33981, 48.8622]}}, {"type": "Feature", "properties": {"id": "339b6ba4-864a-4994-875b-9edb78e80866", "name": "Pokawa", "category": "restaurant", "confidence": 0.9657719329850477, "address": "33 Rue Mazarine"}, "geometry": {"type": "Point", "coordinates": [2.338312, 48.854575]}}, {"type": "Feature", "properties": {"id": "4163b880-ee6c-48d2-8eff-457548de2841", "name": "Resto Gasy", "category": "restaurant", "confidence": 0.9388740675067667, "address": "29 Rue Dauphine"}, "geometry": {"type": "Point", "coordinates": [2.33959679, 48.85496136]}}, {"type": "Feature", "properties": {"id": "344c7b0c-2226-4e02-810c-1c0379b7d71f", "name": "Caf\u00e9 Cl\u00e9mentine", "category": "restaurant", "confidence": 0.9367283950617284, "address": "4 Rue de la Coutellerie"}, "geometry": {"type": "Point", "coordinates": [2.350242, 48.857512]}}, {"type": "Feature", "properties": {"id": "8d59087f-99ad-4eaf-9986-5f4235dba813", "name": "Sens'o", "category": "restaurant", "confidence": 0.77, "address": "81 Rue Saint Louis en l'Ile"}, "geometry": {"type": "Point", "coordinates": [2.3537523787435575, 48.85280293325511]}}, {"type": "Feature", "properties": {"id": "f937ccb8-e0d0-407a-90ed-ee2b15d05bab", "name": "Le Bistro1", "category": "restaurant", "confidence": 0.9657719329850477, "address": "4 Rue de l'\u00c9cole de M\u00e9decine"}, "geometry": {"type": "Point", "coordinates": [2.34202, 48.85066]}}, {"type": "Feature", "properties": {"id": "be0a7a22-a847-4cc5-ab0c-c802512c1aab", "name": "La Chaumiere", "category": "restaurant", "confidence": 0.9657719329850477, "address": "144 Rue Saint-Honor\u00e9"}, "geometry": {"type": "Point", "coordinates": [2.34052, 48.86193]}}, {"type": "Feature", "properties": {"id": "6d971fcd-9b07-46fc-9bd3-f2b9bb5fbaa9", "name": "Mao", "category": "restaurant", "confidence": 0.9388740675067667, "address": "30 Rue Dauphine"}, "geometry": {"type": "Point", "coordinates": [2.33920841, 48.85466149]}}, {"type": "Feature", "properties": {"id": "3e8bb76d-fea3-4b59-8370-87d8e04f502a", "name": "Le Celeste Gourmand", "category": "restaurant", "confidence": 0.9859410355265563, "address": "8 Rue de la T\u00e2cherie"}, "geometry": {"type": "Point", "coordinates": [2.35008105, 48.85759229]}}, {"type": "Feature", "properties": {"id": "86ebd363-eb00-4b0e-8dd8-9ac3eb366634", "name": "Cyfran", "category": "restaurant", "confidence": 0.9367283950617284, "address": "21 Quai des Grands-Augustins"}, "geometry": {"type": "Point", "coordinates": [2.343285, 48.854123]}}, {"type": "Feature", "properties": {"id": "9e45848d-b3fd-47ab-9948-7dcc7c614e0d", "name": "Bolan.paris", "category": "restaurant", "confidence": 0.9367283950617284, "address": "22 Rue du Sommerard"}, "geometry": {"type": "Point", "coordinates": [2.34478, 48.85033]}}, {"type": "Feature", "properties": {"id": "24be2681-aa03-4382-87fa-42bbf35d9b0a", "name": "Mana", "category": "restaurant", "confidence": 0.9918101462025052, "address": "26 Rue Saint-Andr\u00e9-des-Arts"}, "geometry": {"type": "Point", "coordinates": [2.34557053, 48.85292787]}}, {"type": "Feature", "properties": {"id": "9538c025-31b9-46a9-bfdd-5c84c1d8a8f4", "name": "Restaurant Camping X \u9732\u8425\u5c0f\u9986", "category": "restaurant", "confidence": 0.9388740675067667, "address": "36 Rue des Bourdonnais"}, "geometry": {"type": "Point", "coordinates": [2.34564185, 48.86038819]}}, {"type": "Feature", "properties": {"id": "7b7c3ade-37c9-4a05-a423-8317cea8f1ff", "name": "Les Tables Perch\u00e9es", "category": "restaurant", "confidence": 0.9388740675067667, "address": "55 Rue de la Verrerie"}, "geometry": {"type": "Point", "coordinates": [2.35340514, 48.85759763]}}, {"type": "Feature", "properties": {"id": "db3ec32f-b7f6-422e-9b61-86b425df72b1", "name": "Chez Micheline", "category": "restaurant", "confidence": 0.9388740675067667, "address": "10 Rue du Louvre"}, "geometry": {"type": "Point", "coordinates": [2.34117895, 48.86104252]}}, {"type": "Feature", "properties": {"id": "f4e9d2d1-fc65-490c-91cb-838c1876fbd1", "name": "Le Duc", "category": "restaurant", "confidence": 0.9388740675067667, "address": "9 Rue Victor Cousin"}, "geometry": {"type": "Point", "coordinates": [2.34237942, 48.84766771]}}, {"type": "Feature", "properties": {"id": "ccca72ac-21be-4563-8170-3a8ea5cca7a3", "name": "Chez Georges - Restaurant Dernier Etage Centre G Pompidou", "category": "restaurant", "confidence": 0.9657719329850477, "address": "Place Georges Pompidou, 4th arrondissement"}, "geometry": {"type": "Point", "coordinates": [2.3519522435749933, 48.859990903384364]}}, {"type": "Feature", "properties": {"id": "611a6b19-3cbd-4f28-be8a-f231d6dd40ae", "name": "Restaurant", "category": "restaurant", "confidence": 0.9367283950617284, "address": "La Filmoth\u00e8que du Quartier Latin, 9 Rue Champollion"}, "geometry": {"type": "Point", "coordinates": [2.34515426, 48.85306889]}}, {"type": "Feature", "properties": {"id": "2ffd5969-dbbc-4702-8a37-7cce6efbe4d7", "name": "Qianxi Hot Pot", "category": "restaurant", "confidence": 0.9918101462025052, "address": "19 Rue des Halles"}, "geometry": {"type": "Point", "coordinates": [2.34590572, 48.86040527]}}, {"type": "Feature", "properties": {"id": "da2dfa5f-3fac-4118-8d70-3ef682e3880e", "name": "Paprika Latina", "category": "restaurant", "confidence": 0.9388740675067667, "address": "8 Rue Laplace"}, "geometry": {"type": "Point", "coordinates": [2.34776089, 48.84732801]}}, {"type": "Feature", "properties": {"id": "750939c1-f223-402f-bb4f-1e745fb54458", "name": "Les Delices de Chine", "category": "restaurant", "confidence": 0.9367283950617284, "address": "37 Rue Mazarine"}, "geometry": {"type": "Point", "coordinates": [2.338407, 48.854307]}}, {"type": "Feature", "properties": {"id": "5d897fcd-adef-4f20-ade8-9a4296d6e57f", "name": "La Dame sur Seine", "category": "restaurant", "confidence": 0.9657719329850477, "address": "Quai de la Tournelle"}, "geometry": {"type": "Point", "coordinates": [2.35225669, 48.85102987]}}, {"type": "Feature", "properties": {"id": "f7953452-4695-433b-bb2e-45512269e53c", "name": "Junk", "category": "restaurant", "confidence": 0.77, "address": null}, "geometry": {"type": "Point", "coordinates": [2.338362, 48.853462]}}, {"type": "Feature", "properties": {"id": "ea2abbc9-f8de-4f6e-82e9-05c7b710defe", "name": "Restaurant La Goulette", "category": "restaurant", "confidence": 0.9388740675067667, "address": "59 Rue de la Verrerie"}, "geometry": {"type": "Point", "coordinates": [2.35281023, 48.85796933]}}, {"type": "Feature", "properties": {"id": "336fc8da-bdf0-4ae3-82e7-e97ac7941440", "name": "Za", "category": "restaurant", "confidence": 0.9367283950617284, "address": "101 Rue Berger"}, "geometry": {"type": "Point", "coordinates": [2.346251, 48.861711]}}, {"type": "Feature", "properties": {"id": "f2d3e5ef-83a6-4cce-87e6-71a32bbc60b5", "name": "Carrefour Bon App\u00e9tit - Rambuteau", "category": "restaurant", "confidence": 0.9657719329850477, "address": "77 Rue Rambuteau"}, "geometry": {"type": "Point", "coordinates": [2.349637, 48.86199]}}, {"type": "Feature", "properties": {"id": "c8f3f7bf-c607-4904-aa84-1b4f8c1c4f3f", "name": "888nightmarket", "category": "restaurant", "confidence": 0.9657719329850477, "address": "37 Rue Beaubourg"}, "geometry": {"type": "Point", "coordinates": [2.3537211985187, 48.861929499664]}}, {"type": "Feature", "properties": {"id": "3755eb97-b968-4c59-a716-a7527b7ec673", "name": "Ksar", "category": "restaurant", "confidence": 0.77, "address": "4 rue Grobon"}, "geometry": {"type": "Point", "coordinates": [2.3521899250575147, 48.85660962824133]}}, {"type": "Feature", "properties": {"id": "76d22ad2-1ebd-4164-822a-283a1dfd8d71", "name": "Miam's", "category": "restaurant", "confidence": 0.9388740675067667, "address": "94 Boulevard Saint-Germain"}, "geometry": {"type": "Point", "coordinates": [2.34417749, 48.85134987]}}, {"type": "Feature", "properties": {"id": "6d4fd1a8-b75b-48c7-86ad-75903191a7aa", "name": "Mosarpi ", "category": "restaurant", "confidence": 0.9657719329850477, "address": "10 Rue Toullier"}, "geometry": {"type": "Point", "coordinates": [2.34286, 48.84713]}}, {"type": "Feature", "properties": {"id": "89112019-ee63-4676-923b-addb5e382500", "name": "ACT 21", "category": "restaurant", "confidence": 0.9859410355265563, "address": "5 Rue Sauval"}, "geometry": {"type": "Point", "coordinates": [2.34243998, 48.86188007]}}, {"type": "Feature", "properties": {"id": "59b393ed-ba23-4c01-a600-94f20ff2f553", "name": "Happy Yummy - Forum des Halles", "category": "restaurant", "confidence": 0.9657719329850477, "address": "Monoprix, 101 Rue Berger"}, "geometry": {"type": "Point", "coordinates": [2.347415, 48.862162]}}, {"type": "Feature", "properties": {"id": "6c645508-1d46-4c9c-8aa4-a6d468be27b3", "name": "Hoct et Loca - Bar a Chocolat", "category": "restaurant", "confidence": 0.9388740675067667, "address": "99 Rue de la Verrerie"}, "geometry": {"type": "Point", "coordinates": [2.35030175, 48.85890383]}}, {"type": "Feature", "properties": {"id": "40795495-0094-4283-be57-75b8d298912a", "name": "ITEM", "category": "restaurant", "confidence": 0.9367283950617284, "address": "18 Rue du Louvre"}, "geometry": {"type": "Point", "coordinates": [2.34119, 48.8613799]}}, {"type": "Feature", "properties": {"id": "ffc2a7c9-33e3-4e24-b02c-287faecbfd6b", "name": "Javette", "category": "restaurant", "confidence": 0.9388740675067667, "address": "20 Rue Dauphine"}, "geometry": {"type": "Point", "coordinates": [2.33971522, 48.8552348]}}, {"type": "Feature", "properties": {"id": "242bdec2-8b27-46dd-bab6-bd5309fe9c6a", "name": "Les Acrobates", "category": "restaurant", "confidence": 0.9388740675067667, "address": "20 Rue du Renard"}, "geometry": {"type": "Point", "coordinates": [2.35278663, 48.85955861]}}, {"type": "Feature", "properties": {"id": "52aa50b8-eb95-4f07-8fd3-49b2fb912afe", "name": "For me", "category": "restaurant", "confidence": 0.9388740675067667, "address": "4b Rue du Cardinal Lemoine"}, "geometry": {"type": "Point", "coordinates": [2.35454044, 48.84967392]}}, {"type": "Feature", "properties": {"id": "b46ecc53-080f-4098-95f3-1697262ea682", "name": "Titi Palacio", "category": "restaurant", "confidence": 0.77, "address": "17 boulevard Morland"}, "geometry": {"type": "Point", "coordinates": [2.355765, 48.856882]}}, {"type": "Feature", "properties": {"id": "2f4f1077-ea7d-4001-8e41-611433c6fce3", "name": "cheap and best food street in paris", "category": "restaurant", "confidence": 0.9388740675067667, "address": "14 Rue Xavier Privas"}, "geometry": {"type": "Point", "coordinates": [2.34569271, 48.85295639]}}, {"type": "Feature", "properties": {"id": "69bcc4b1-9bcd-4149-b0a9-4a1c20dd5755", "name": "Pepers", "category": "restaurant", "confidence": 0.9367283950617284, "address": "34 Boulevard Saint-Michel"}, "geometry": {"type": "Point", "coordinates": [2.34221, 48.84995]}}, {"type": "Feature", "properties": {"id": "8994787e-7773-4fa2-adf7-9e5448677f3a", "name": "Atelier Beyrouth", "category": "restaurant", "confidence": 0.9657719329850477, "address": "2T Quai de la M\u00e9gisserie"}, "geometry": {"type": "Point", "coordinates": [2.345835, 48.85771009]}}, {"type": "Feature", "properties": {"id": "2e83180c-bee2-425b-b8d7-2fc171ca604c", "name": "Maison Sichuan (YUNAN)\u5ddd\u6e1d\u4eba\u5bb6", "category": "restaurant", "confidence": 0.9388740675067667, "address": "102 Rue Saint-Honor\u00e9"}, "geometry": {"type": "Point", "coordinates": [2.34216788, 48.86166621]}}, {"type": "Feature", "properties": {"id": "d548d97d-614b-4491-94c5-a8f02218b298", "name": "Afro d\u00eener", "category": "restaurant", "confidence": 0.9764705882352941, "address": "15 Rue des Halles"}, "geometry": {"type": "Point", "coordinates": [2.34619, 48.86016]}}, {"type": "Feature", "properties": {"id": "450c5d8f-c7fe-4953-b40a-f76abf1e3659", "name": "Smartlink Agency ", "category": "restaurant", "confidence": 0.9764705882352941, "address": "13 ru\u00e9 Paris "}, "geometry": {"type": "Point", "coordinates": [2.3414, 48.85717]}}, {"type": "Feature", "properties": {"id": "54402cba-b1de-4cd7-bb06-648b3fb21804", "name": "Le Cameleon", "category": "restaurant", "confidence": 0.9854475308641976, "address": "57 Rue Saint-Andr\u00e9-des-Arts"}, "geometry": {"type": "Point", "coordinates": [2.339045, 48.853515]}}, {"type": "Feature", "properties": {"id": "eb19eaeb-a4f1-44dd-bb8f-fd1a05f17b0e", "name": "ASPP", "category": "restaurant", "confidence": 0.77, "address": "35 boulevard de Sebastopol"}, "geometry": {"type": "Point", "coordinates": [2.349168383106309, 48.8608477623992]}}, {"type": "Feature", "properties": {"id": "f42066a8-7426-41ee-82f4-73979bb1fc9a", "name": "Le Bistrot", "category": "restaurant", "confidence": 0.9367283950617284, "address": "14 Rue de la Huchette"}, "geometry": {"type": "Point", "coordinates": [2.3506173, 48.8562437]}}, {"type": "Feature", "properties": {"id": "2d06b884-2530-40fb-9e9a-feac1a910f76", "name": "Opaa", "category": "restaurant", "confidence": 0.9367283950617284, "address": "12 Rue Pierre Lescot"}, "geometry": {"type": "Point", "coordinates": [2.348401, 48.861852]}}, {"type": "Feature", "properties": {"id": "d17407b7-97a2-43bc-bf55-6810144c2477", "name": "Saint Germain des Cr\u00eapes", "category": "restaurant", "confidence": 0.9367283950617284, "address": "70 Boulevard Saint-Germain"}, "geometry": {"type": "Point", "coordinates": [2.347276, 48.850633]}}, {"type": "Feature", "properties": {"id": "23c1a061-817f-4bf2-95e3-15b03612c5a8", "name": "Choose Eat", "category": "restaurant", "confidence": 0.9859410355265563, "address": "3 Rue de l'\u00c9cole Polytechnique"}, "geometry": {"type": "Point", "coordinates": [2.34804209, 48.84748172]}}, {"type": "Feature", "properties": {"id": "868e46fd-64b0-49e9-90d7-56d7e5168883", "name": "\u30c8\u30a5\u30fc\u30eb\u30fb\u30c0\u30eb\u30b8\u30e3\u30f3", "category": "restaurant", "confidence": 0.9657719329850477, "address": null}, "geometry": {"type": "Point", "coordinates": [2.3548888888889, 48.849883333333]}}, {"type": "Feature", "properties": {"id": "e4fa7912-c938-480d-8fa0-fd1b3cc70de3", "name": "NTABA De Londres", "category": "restaurant", "confidence": 0.9367283950617284, "address": "17 Rue de la Sorbonne"}, "geometry": {"type": "Point", "coordinates": [2.34313, 48.8489]}}, {"type": "Feature", "properties": {"id": "17e09e89-44df-4826-ae69-7f8a9c3c8693", "name": "Feu", "category": "restaurant", "confidence": 0.9859410355265563, "address": "54 Rue de l'Arbre-Sec"}, "geometry": {"type": "Point", "coordinates": [2.34258889, 48.86105508]}}, {"type": "Feature", "properties": {"id": "85ac4c7d-7406-4193-aebb-7a504654ebd6", "name": "Oakberry A\u00e7a\u00ed Bowls Saint Michel", "category": "restaurant", "confidence": 0.9388740675067667, "address": "1 Rue de l'\u00c9cole de M\u00e9decine"}, "geometry": {"type": "Point", "coordinates": [2.3422412, 48.85045261]}}, {"type": "Feature", "properties": {"id": "dc402e98-97ab-446d-8d6a-d08ae383e745", "name": "Chez morgane", "category": "restaurant", "confidence": 0.9657719329850477, "address": "2 Rue du Chat-Qui-P\u00eache"}, "geometry": {"type": "Point", "coordinates": [2.345566, 48.852768]}}, {"type": "Feature", "properties": {"id": "d7c5e3ab-ed2f-4538-a54b-37cf4b55af25", "name": "Restogawa", "category": "restaurant", "confidence": 0.9367283950617284, "address": "21 Rue du Roule"}, "geometry": {"type": "Point", "coordinates": [2.34378841, 48.86100103]}}, {"type": "Feature", "properties": {"id": "0af93232-45ec-4095-963e-38d0914f9906", "name": "Le Cobbler", "category": "restaurant", "confidence": 0.77, "address": "9 quai de Montebello \\u00C0 l'\\u00E9tage du restaurant la Bouteille d'Or"}, "geometry": {"type": "Point", "coordinates": [2.3498665200013287, 48.85150086860494]}}, {"type": "Feature", "properties": {"id": "fca23a69-4b1b-48d4-8eb0-0a33e0f1a6fe", "name": "Il Santo", "category": "restaurant", "confidence": 0.77, "address": "12 rue des Pr\u00eacheurs"}, "geometry": {"type": "Point", "coordinates": [2.348746889158284, 48.862138821954055]}}, {"type": "Feature", "properties": {"id": "759960dd-9804-4601-a087-a432bc61bc62", "name": "Blue Merlin", "category": "restaurant", "confidence": 0.9388740675067667, "address": "3 Rue Monge"}, "geometry": {"type": "Point", "coordinates": [2.34948665, 48.84950267]}}, {"type": "Feature", "properties": {"id": "9cec2c9d-df60-4641-b0b8-cd63b0b38d22", "name": "O'saveurs d'Afrique annemasse", "category": "restaurant", "confidence": 0.9657719329850477, "address": "5 avenue pasteur \\ndans la galerie commerce pasteur "}, "geometry": {"type": "Point", "coordinates": [2.3415702414701, 48.85727542043]}}, {"type": "Feature", "properties": {"id": "42f5eb1b-ddb1-4b4e-93fb-ef3c7e8235ca", "name": "Bistrot Buci Mazarine", "category": "restaurant", "confidence": 0.9657719329850477, "address": "82 Rue Mazarine"}, "geometry": {"type": "Point", "coordinates": [2.3376814, 48.8553619]}}, {"type": "Feature", "properties": {"id": "ce62f1b6-4289-42e2-bb16-5683cf9974f5", "name": "Burger King Paris", "category": "restaurant", "confidence": 0.9657719329850477, "address": "Place de l'H\u00f4tel de Ville"}, "geometry": {"type": "Point", "coordinates": [2.35188, 48.85653]}}, {"type": "Feature", "properties": {"id": "81d8eecb-32cf-43ac-b1f1-e65be86da665", "name": "Street Food", "category": "restaurant", "confidence": 0.9367283950617284, "address": "29 Rue Dauphine"}, "geometry": {"type": "Point", "coordinates": [2.33965, 48.85498]}}, {"type": "Feature", "properties": {"id": "e66645e9-c4e1-4883-a1d7-3c0c98484467", "name": "Le Spot", "category": "restaurant", "confidence": 0.9367283950617284, "address": "127 Rue Saint-Honor\u00e9"}, "geometry": {"type": "Point", "coordinates": [2.341719, 48.861473]}}, {"type": "Feature", "properties": {"id": "6548df6e-5cf9-4f5d-9d64-441fc4485f94", "name": "SAME SAME but in PARIS", "category": "restaurant", "confidence": 0.9657719329850477, "address": "2 Rue de l'\u00c9cole Polytechnique"}, "geometry": {"type": "Point", "coordinates": [2.34828, 48.84746]}}, {"type": "Feature", "properties": {"id": "34869496-f063-4c97-919d-edf3406a2e1e", "name": "Caf\u00e9 de la Po\u00e9sie", "category": "restaurant", "confidence": 0.77, "address": "157 rue Saint Martin"}, "geometry": {"type": "Point", "coordinates": [2.3517997591658446, 48.862207840142204]}}, {"type": "Feature", "properties": {"id": "0b52c4f1-63fe-4ad5-aaed-63ff1c830cf8", "name": "Les Voyelles", "category": "restaurant", "confidence": 0.77, "address": "74 quai des Orf\u00e8vres"}, "geometry": {"type": "Point", "coordinates": [2.34157300936992, 48.85683349850225]}}, {"type": "Feature", "properties": {"id": "2ce7968e-2741-489c-9da6-730ff6f5b4ec", "name": "Cana en Seine", "category": "restaurant", "confidence": 0.9388740675067667, "address": "12 Quai de Gesvres"}, "geometry": {"type": "Point", "coordinates": [2.34868883, 48.85679658]}}, {"type": "Feature", "properties": {"id": "86d6dbe8-dfad-4b56-9cac-15400b7e2ea3", "name": "Heureux Comme Alexandre", "category": "restaurant", "confidence": 0.9657719329850477, "address": "24 Rue de la Parcheminerie"}, "geometry": {"type": "Point", "coordinates": [2.344738, 48.851838]}}, {"type": "Feature", "properties": {"id": "54716dc2-6417-41ca-9f9d-43f75bfafac6", "name": "Polykim", "category": "restaurant", "confidence": 0.9921275445865609, "address": "17 Rue des Halles"}, "geometry": {"type": "Point", "coordinates": [2.346075, 48.860286]}}, {"type": "Feature", "properties": {"id": "f6759e70-334e-4fc3-a230-30f9948ecca1", "name": "Caf\u00e9 Feria", "category": "restaurant", "confidence": 0.9764705882352941, "address": "4 Rue du Bourg-Tibourg"}, "geometry": {"type": "Point", "coordinates": [2.35582, 48.85677]}}, {"type": "Feature", "properties": {"id": "03ac6b85-fc83-44df-a679-484b7f56aab6", "name": "The Bombardier English Pub Paris", "category": "restaurant", "confidence": 0.77, "address": "Place du Pantheon, 2 Pl. du Panth\u00e9on"}, "geometry": {"type": "Point", "coordinates": [2.348793490170229, 48.85341967921634]}}, {"type": "Feature", "properties": {"id": "8739ec1b-6594-41a7-9ece-3bdacbbaffaa", "name": "Georges V \u00e0 Paris", "category": "restaurant", "confidence": 0.9367283950617284, "address": null}, "geometry": {"type": "Point", "coordinates": [2.3541012393566, 48.859282232181]}}, {"type": "Feature", "properties": {"id": "6c11afb5-7c69-4e05-8be3-3cc819e34b59", "name": "Angele", "category": "restaurant", "confidence": 0.9367283950617284, "address": "41 Rue Quincampoix"}, "geometry": {"type": "Point", "coordinates": [2.350403, 48.860898]}}, {"type": "Feature", "properties": {"id": "197fc97f-6744-4d98-98de-e4df1bb87d28", "name": "Victor 1920", "category": "restaurant", "confidence": 0.9854475308641976, "address": "33 Rue Rambuteau"}, "geometry": {"type": "Point", "coordinates": [2.3537472550474945, 48.860854681027995]}}, {"type": "Feature", "properties": {"id": "45a8d478-2764-408f-b2d5-7a17ef9996aa", "name": "Voyage Samaritaine", "category": "restaurant", "confidence": 0.9921275445865609, "address": "9 Rue de la Monnaie"}, "geometry": {"type": "Point", "coordinates": [2.342392, 48.85932]}}, {"type": "Feature", "properties": {"id": "a6162382-5da9-4152-a5ae-c4e3bb23f01b", "name": "Sistersfactory", "category": "restaurant", "confidence": 0.9657719329850477, "address": "43 Rue de l'Arbre-Sec"}, "geometry": {"type": "Point", "coordinates": [2.342397, 48.861173]}}, {"type": "Feature", "properties": {"id": "7db78ace-5993-4f58-b4a1-d157a0650ee0", "name": "El Marichi", "category": "restaurant", "confidence": 0.9367283950617284, "address": "30 Rue des Bernardins"}, "geometry": {"type": "Point", "coordinates": [2.35042, 48.84985]}}, {"type": "Feature", "properties": {"id": "765df115-d631-4e1d-a868-a35e8b50af02", "name": "L\u2019etoile de rivoli", "category": "restaurant", "confidence": 0.77, "address": "158 rue de Rivoli"}, "geometry": {"type": "Point", "coordinates": [2.340239633843383, 48.861303612949975]}}, {"type": "Feature", "properties": {"id": "ae08bd9d-ff35-4e78-852f-94b9b73df5e5", "name": "Mugiz Paris", "category": "restaurant", "confidence": 0.9921275445865609, "address": "26 Rue Rambuteau"}, "geometry": {"type": "Point", "coordinates": [2.354195, 48.861051]}}, {"type": "Feature", "properties": {"id": "af56431b-7349-4963-bd64-f579dc4adb78", "name": "Limbar", "category": "restaurant", "confidence": 0.9657719329850477, "address": "8 Quai du Louvre"}, "geometry": {"type": "Point", "coordinates": [2.342087, 48.858817]}}, {"type": "Feature", "properties": {"id": "07f92303-644a-418f-9963-faf199e37c70", "name": "Mon waffle", "category": "restaurant", "confidence": 0.9859410355265563, "address": "81 Rue Rambuteau"}, "geometry": {"type": "Point", "coordinates": [2.34940669, 48.8621041]}}, {"type": "Feature", "properties": {"id": "8b6a8995-1df4-4ffd-b09d-b059c91f5e9c", "name": "Sant'Antonio", "category": "restaurant", "confidence": 0.9388740675067667, "address": "16 Rue Saint-Martin"}, "geometry": {"type": "Point", "coordinates": [2.34989787, 48.85823185]}}, {"type": "Feature", "properties": {"id": "2fa54ac1-add0-4a07-86fc-5542c6ad9680", "name": "Gwiyaomi", "category": "restaurant", "confidence": 0.77, "address": "26 rue Monsieur le Prince"}, "geometry": {"type": "Point", "coordinates": [2.3400661126400384, 48.84952241996419]}}, {"type": "Feature", "properties": {"id": "72989a47-3d57-4cd2-9e9b-af32bcc15643", "name": "Bistro Su\u00e9dois IKEA Rivoli", "category": "restaurant", "confidence": 0.77, "address": "144 rue de Rivoli, \u00cele-de-France"}, "geometry": {"type": "Point", "coordinates": [2.34263606, 48.86050983]}}, {"type": "Feature", "properties": {"id": "5eb62ba8-717c-4446-a8d7-49b7b6b4fe0c", "name": "KGB (Kitchen Galerie Bis)", "category": "restaurant", "confidence": 0.77, "address": "25 rue des Grands Augustins"}, "geometry": {"type": "Point", "coordinates": [2.34038150480006, 48.853732600571334]}}, {"type": "Feature", "properties": {"id": "c9898c01-1664-4093-9564-19a678f5b6d7", "name": "So'Lex", "category": "restaurant", "confidence": 0.9367283950617284, "address": "8 Rue des Lombards"}, "geometry": {"type": "Point", "coordinates": [2.34993, 48.85915]}}, {"type": "Feature", "properties": {"id": "4de7e8d9-03db-43a6-868e-913d67601d0e", "name": "La Famille Heureuse", "category": "restaurant", "confidence": 0.9388740675067667, "address": "33 Rue Berger"}, "geometry": {"type": "Point", "coordinates": [2.34402356, 48.8617904]}}, {"type": "Feature", "properties": {"id": "98a3581b-e194-4cc3-b05a-b8e9a83b32a1", "name": "Les Princesses", "category": "restaurant", "confidence": 0.9388740675067667, "address": "7 Rue Gr\u00e9goire de Tours"}, "geometry": {"type": "Point", "coordinates": [2.33795661, 48.85336082]}}, {"type": "Feature", "properties": {"id": "0458fb11-43a3-4148-9158-0f6f73417e8e", "name": "Yongfa Traiteur", "category": "restaurant", "confidence": 0.9388740675067667, "address": "6 Rue Hautefeuille"}, "geometry": {"type": "Point", "coordinates": [2.34295739, 48.85249168]}}, {"type": "Feature", "properties": {"id": "b67c3944-3266-44d3-841b-1b343b1d1aab", "name": "L'olivier Beyrouth", "category": "restaurant", "confidence": 0.77, "address": "25 rue Francisque Gay"}, "geometry": {"type": "Point", "coordinates": [2.3433196660081355, 48.85276164141072]}}, {"type": "Feature", "properties": {"id": "94061fa8-12ee-4f46-89ee-c90479a12545", "name": "Goerge Cafe", "category": "restaurant", "confidence": 0.9657719329850477, "address": "Quai Saint-Michel"}, "geometry": {"type": "Point", "coordinates": [2.346418, 48.853096]}}, {"type": "Feature", "properties": {"id": "fcdaaed4-40ce-44c9-a03e-8fdd770c0163", "name": "Galerie FOR\u00caT VERTE", "category": "restaurant", "confidence": 0.9657719329850477, "address": "19 Rue Gu\u00e9n\u00e9gaud"}, "geometry": {"type": "Point", "coordinates": [2.33874, 48.85573]}}, {"type": "Feature", "properties": {"id": "a9667035-234d-4153-b5cb-85f0cc003105", "name": "Bird - HQ", "category": "restaurant", "confidence": 0.9367283950617284, "address": "150 Rue de Rivoli"}, "geometry": {"type": "Point", "coordinates": [2.34144, 48.86083]}}, {"type": "Feature", "properties": {"id": "573c5510-1dc9-4ef3-a76e-1fc93370082e", "name": "MOMA - Luxury Restaurant", "category": "restaurant", "confidence": 0.9367283950617284, "address": "24 Rue du Pont Neuf"}, "geometry": {"type": "Point", "coordinates": [2.34492, 48.86088]}}, {"type": "Feature", "properties": {"id": "466341d2-46cf-45fd-9d60-6103eaea310d", "name": "Art Kf\u00e9 & Spritz.", "category": "restaurant", "confidence": 0.9367283950617284, "address": "9 Rue Dauphine"}, "geometry": {"type": "Point", "coordinates": [2.3403001, 48.8557587]}}, {"type": "Feature", "properties": {"id": "ae484557-4ac3-40fe-bf20-c15d54b3925a", "name": "Street Food Paris", "category": "restaurant", "confidence": 0.9367283950617284, "address": "59 Rue du Cardinal Lemoine"}, "geometry": {"type": "Point", "coordinates": [2.355412, 48.848453]}}, {"type": "Feature", "properties": {"id": "c7e9eafa-f346-4430-a46a-f3bbaa8eb257", "name": "luka", "category": "restaurant", "confidence": 0.9388740675067667, "address": "9 Rue de la Harpe"}, "geometry": {"type": "Point", "coordinates": [2.34467077, 48.85270939]}}, {"type": "Feature", "properties": {"id": "8b61b367-3d80-4ea6-98dd-744909aeaa0e", "name": "Le Danton", "category": "restaurant", "confidence": 0.9859410355265563, "address": "103 Boulevard Saint-Germain"}, "geometry": {"type": "Point", "coordinates": [2.33885529, 48.85218572]}}, {"type": "Feature", "properties": {"id": "36ad458a-a486-45ed-90ab-96d6337fcd26", "name": "Steak house", "category": "restaurant", "confidence": 0.9388740675067667, "address": "8 Rue de la Huchette"}, "geometry": {"type": "Point", "coordinates": [2.34626059, 48.85288818]}}, {"type": "Feature", "properties": {"id": "f2570ca3-d1ae-42d8-b057-2a6c6b7b12e7", "name": "Aldehyde", "category": "restaurant", "confidence": 0.77, "address": "5 rue du Pont Louis-Philippe"}, "geometry": {"type": "Point", "coordinates": [2.355338338145687, 48.85499286113301]}}, {"type": "Feature", "properties": {"id": "daf07cff-b85a-446e-8c4a-32146b03d533", "name": "Daltys Coffee et Food", "category": "restaurant", "confidence": 0.9388740675067667, "address": "4 Rue Valette"}, "geometry": {"type": "Point", "coordinates": [2.34658933, 48.84743644]}}, {"type": "Feature", "properties": {"id": "0b6690aa-b097-4055-8ec3-d11c9e90585f", "name": "Al.HALLAB1881", "category": "restaurant", "confidence": 0.9657719329850477, "address": "Ch\u00e2telet "}, "geometry": {"type": "Point", "coordinates": [2.34565, 48.85784]}}, {"type": "Feature", "properties": {"id": "352af8d0-0998-40c9-ae54-bff9a45dbfa5", "name": "Gast - Paris 1", "category": "restaurant", "confidence": 0.9388740675067667, "address": "14 Rue Bertin Poir\u00e9e"}, "geometry": {"type": "Point", "coordinates": [2.3449641, 48.85885661]}}, {"type": "Feature", "properties": {"id": "967b5288-f470-484a-898b-4e37f8fa7c8f", "name": "Le Grigouille", "category": "restaurant", "confidence": 0.9367283950617284, "address": "10 Rue Boutebrie"}, "geometry": {"type": "Point", "coordinates": [2.344501, 48.851447]}}, {"type": "Feature", "properties": {"id": "9131d848-78d5-4e24-92d1-bfadbd03a7f7", "name": "COSMO", "category": "restaurant", "confidence": 0.9388740675067667, "address": "5 Rue des \u00c9coles"}, "geometry": {"type": "Point", "coordinates": [2.35250522, 48.84742474]}}, {"type": "Feature", "properties": {"id": "c8215698-b370-4563-aeea-498f718719db", "name": "Travailler", "category": "restaurant", "confidence": 0.9367283950617284, "address": "Place de l'H\u00f4tel de Ville"}, "geometry": {"type": "Point", "coordinates": [2.352222, 48.856613]}}, {"type": "Feature", "properties": {"id": "38376402-f473-4425-964e-56bad2ef2b5f", "name": "Chez GIGI 75005", "category": "restaurant", "confidence": 0.9921275445865609, "address": "11 Rue Xavier Privas"}, "geometry": {"type": "Point", "coordinates": [2.34541497, 48.8526872]}}, {"type": "Feature", "properties": {"id": "49546a75-859b-4a2f-9d71-2e615d191e09", "name": "Bateau Six Huit", "category": "restaurant", "confidence": 0.9367283950617284, "address": "78 Quai d'Austerlitz"}, "geometry": {"type": "Point", "coordinates": [2.3490644713798, 48.85252584128]}}, {"type": "Feature", "properties": {"id": "3bf78fe0-fd02-491f-b72a-70b144afdc56", "name": "Helmut Newcake", "category": "restaurant", "confidence": 0.9657719329850477, "address": "144 Rue Saint-Honor\u00e9"}, "geometry": {"type": "Point", "coordinates": [2.34047, 48.861967]}}, {"type": "Feature", "properties": {"id": "f0d78f74-a62f-4a03-9a19-a994c923db44", "name": "Sodexo", "category": "restaurant", "confidence": 0.9367283950617284, "address": "1 Rue de Marengo"}, "geometry": {"type": "Point", "coordinates": [2.33923736, 48.86210868]}}, {"type": "Feature", "properties": {"id": "572ff2b2-8796-40c0-8be5-eb63041ee14c", "name": "Specialites Francaises", "category": "restaurant", "confidence": 0.9657719329850477, "address": "25 Rue de la Harpe"}, "geometry": {"type": "Point", "coordinates": [2.344702, 48.852236]}}, {"type": "Feature", "properties": {"id": "1c111810-6afa-4318-8850-0e0cbb24a8b7", "name": "Khatag", "category": "restaurant", "confidence": 0.9367283950617284, "address": "68 Rue Quincampoix"}, "geometry": {"type": "Point", "coordinates": [2.351013, 48.861903]}}, {"type": "Feature", "properties": {"id": "f7a5450a-26e2-4e1f-a35f-2244f1f8475e", "name": "Perkumpulan Cewe Manja", "category": "restaurant", "confidence": 0.9367283950617284, "address": "25 Rue Mazarine"}, "geometry": {"type": "Point", "coordinates": [2.33798, 48.85489]}}, {"type": "Feature", "properties": {"id": "001c9b02-382b-4696-a161-7be55bd696c8", "name": "Talego", "category": "restaurant", "confidence": 0.9367283950617284, "address": "26 Rue Chanoinesse"}, "geometry": {"type": "Point", "coordinates": [2.350238, 48.854241]}}, {"type": "Feature", "properties": {"id": "5e716036-7b1e-4f9c-8921-621dcb98afcd", "name": "Jsfp Traiteur", "category": "restaurant", "confidence": 0.77, "address": "8 rue de Buci"}, "geometry": {"type": "Point", "coordinates": [2.337783113840656, 48.85384513545722]}}, {"type": "Feature", "properties": {"id": "22f17c1b-ff71-4576-ade8-acc215296d03", "name": "Loufoque", "category": "restaurant", "confidence": 0.9388740675067667, "address": "57 Rue Galande"}, "geometry": {"type": "Point", "coordinates": [2.3469007, 48.85165118]}}, {"type": "Feature", "properties": {"id": "dfba9f4d-1f19-4a3e-bef5-d6c09852ec92", "name": "Dandino", "category": "restaurant", "confidence": 0.77, "address": "8 rue de Buci"}, "geometry": {"type": "Point", "coordinates": [2.337783113840656, 48.85384513545722]}}, {"type": "Feature", "properties": {"id": "c1a07797-1910-4ac8-8222-9f519023c2c2", "name": "Le Parvis", "category": "restaurant", "confidence": 0.9388740675067667, "address": "20 Rue Xavier Privas"}, "geometry": {"type": "Point", "coordinates": [2.34524542, 48.85265024]}}, {"type": "Feature", "properties": {"id": "dc8467e6-99aa-433a-b7bd-3a7298ce0c82", "name": "Augustin 13", "category": "restaurant", "confidence": 0.9367283950617284, "address": "13 Quai des Grands-Augustins"}, "geometry": {"type": "Point", "coordinates": [2.343644, 48.853865]}}, {"type": "Feature", "properties": {"id": "b6d451ae-94c4-4503-9500-a4269ed1fd31", "name": "La table cache'e par Michel Roth - BHV Marais", "category": "restaurant", "confidence": 0.9921275445865609, "address": "55 Rue de la Verrerie"}, "geometry": {"type": "Point", "coordinates": [2.353261, 48.857525]}}, {"type": "Feature", "properties": {"id": "d9a57587-daf4-48f7-8358-03e8020297b2", "name": "Tradi & Co", "category": "restaurant", "confidence": 0.9388740675067667, "address": "9 Rue du Renard"}, "geometry": {"type": "Point", "coordinates": [2.35173259, 48.85816574]}}, {"type": "Feature", "properties": {"id": "56607c1e-ef52-404d-899a-c1aebf926672", "name": "Restaurant de Haute Mer", "category": "restaurant", "confidence": 0.9657719329850477, "address": "33 Rue Saint-Jacques"}, "geometry": {"type": "Point", "coordinates": [2.3458541337328778, 48.85094892435243]}}, {"type": "Feature", "properties": {"id": "3e60d5f6-1dac-4e86-852c-e4f48ae5513e", "name": "\u00c0 tous nos sens", "category": "restaurant", "confidence": 0.9367283950617284, "address": "8 Quai du Louvre"}, "geometry": {"type": "Point", "coordinates": [2.34206, 48.85879]}}, {"type": "Feature", "properties": {"id": "ddd4160c-d5c6-46c5-8632-5b1d6c940103", "name": "Le Grand Caf\u00e9 Rouge", "category": "restaurant", "confidence": 0.9657719329850477, "address": "3 Rue du Petit-Pont"}, "geometry": {"type": "Point", "coordinates": [2.3467, 48.85263]}}, {"type": "Feature", "properties": {"id": "e0a19eb4-2321-4422-b554-3ee5f95f4f00", "name": "Z'Edmond", "category": "restaurant", "confidence": 0.77, "address": "6 place Edmond Rostand"}, "geometry": {"type": "Point", "coordinates": [2.340255, 48.847752]}}, {"type": "Feature", "properties": {"id": "cdeb3c7c-2e4a-484c-84b3-b05e90d54ccd", "name": "Donna Paris", "category": "restaurant", "confidence": 0.9657719329850477, "address": "157 Rue Saint-Martin"}, "geometry": {"type": "Point", "coordinates": [2.35184, 48.86217]}}, {"type": "Feature", "properties": {"id": "ab117ab0-959f-46f3-859b-c79439c10997", "name": "Magic Pain", "category": "restaurant", "confidence": 0.77, "address": "27 rue Saint Andr\u00e9 des Arts"}, "geometry": {"type": "Point", "coordinates": [2.3423356342996837, 48.853266811424525]}}, {"type": "Feature", "properties": {"id": "0c0c20f8-f5c3-40f0-8637-6c51d6331b7a", "name": "Tara-Tata", "category": "restaurant", "confidence": 0.9388740675067667, "address": "49 Rue Berger"}, "geometry": {"type": "Point", "coordinates": [2.34211452, 48.86215843]}}, {"type": "Feature", "properties": {"id": "24aae934-8325-41d7-810e-8a8c5443a078", "name": "Rendez-Vous Saint-Germain", "category": "restaurant", "confidence": 0.77, "address": "88 boulevard Saint-Germain"}, "geometry": {"type": "Point", "coordinates": [2.3450575042903092, 48.85108783048007]}}, {"type": "Feature", "properties": {"id": "44af67e7-208c-4659-b620-8396774243f9", "name": "Hebe", "category": "restaurant", "confidence": 0.9859410355265563, "address": "15 Rue Fr\u00e9d\u00e9ric Sauton"}, "geometry": {"type": "Point", "coordinates": [2.3489142, 48.85082557]}}, {"type": "Feature", "properties": {"id": "d5cd8479-ac2d-4775-8c68-6538e7ee2e8b", "name": "Sa\u00efbou BCEAO Coulibaly", "category": "restaurant", "confidence": 0.9367283950617284, "address": "1 Rue du Pont Neuf"}, "geometry": {"type": "Point", "coordinates": [2.34307, 48.85915]}}, {"type": "Feature", "properties": {"id": "f5376c50-bc85-4f9b-b20f-a265a12b3245", "name": "Di Pasta", "category": "restaurant", "confidence": 0.9388740675067667, "address": "4 Rue Suger"}, "geometry": {"type": "Point", "coordinates": [2.34250702, 48.85304074]}}, {"type": "Feature", "properties": {"id": "350e17f0-d867-49c5-9491-e6a8e70a8842", "name": "Boutique Orange (Partenaire Franchise) G\u00e9n\u00e9rale De T\u00e9l\u00e9phone - Colombes", "category": "restaurant", "confidence": 0.9367283950617284, "address": "56 Rue Saint-Denis"}, "geometry": {"type": "Point", "coordinates": [2.349109, 48.861048]}}, {"type": "Feature", "properties": {"id": "3040a7fa-f49b-4493-9969-8780ed7f48f6", "name": "La Baguette du Relais", "category": "restaurant", "confidence": 0.9981163336265761, "address": "10 Rue des Archives"}, "geometry": {"type": "Point", "coordinates": [2.3544413, 48.85758586]}}, {"type": "Feature", "properties": {"id": "b0954a7d-f721-49a2-9a20-73052dfa5648", "name": "Yogurt Factory (La Rochelle)", "category": "restaurant", "confidence": 0.77, "address": "14 rue Du Temple"}, "geometry": {"type": "Point", "coordinates": [2.3534371044609164, 48.85824075317097]}}, {"type": "Feature", "properties": {"id": "2cf60186-43d4-4ebc-a651-f64819f1672a", "name": "Wakaze Paris", "category": "restaurant", "confidence": 0.9921275445865609, "address": "31 Rue de la Parcheminerie"}, "geometry": {"type": "Point", "coordinates": [2.3445988239542706, 48.852317697857025]}}, {"type": "Feature", "properties": {"id": "687e87f9-5e76-4911-95be-6632a91f0079", "name": "Les Dessous de la Robe", "category": "restaurant", "confidence": 0.9921275445865609, "address": "13 Rue des Lavandi\u00e8res Sainte-Opportune"}, "geometry": {"type": "Point", "coordinates": [2.345852, 48.858642]}}, {"type": "Feature", "properties": {"id": "3c14bad9-4b30-4aae-bc96-60dc91022cd1", "name": "Original's Banh Mi", "category": "restaurant", "confidence": 0.9367283950617284, "address": "10 Rue de Lanneau"}, "geometry": {"type": "Point", "coordinates": [2.346715, 48.84843]}}, {"type": "Feature", "properties": {"id": "32d590dc-0622-4664-8d05-0a1166c3b68a", "name": "La Taverne du Nil", "category": "restaurant", "confidence": 0.77, "address": null}, "geometry": {"type": "Point", "coordinates": [2.354790489037638, 48.852245386515406]}}, {"type": "Feature", "properties": {"id": "ec54f7a2-ad59-4aa8-b003-c261a17853b0", "name": "Partenope-i", "category": "restaurant", "confidence": 0.77, "address": "73 rue Saint-Martin"}, "geometry": {"type": "Point", "coordinates": [2.35037010082241, 48.85942476285194]}}, {"type": "Feature", "properties": {"id": "a75f3598-439f-476b-8624-8b9b1ddf06ad", "name": "Resto beaubourg", "category": "restaurant", "confidence": 0.9388740675067667, "address": "4 Rue Aubry-le-Boucher"}, "geometry": {"type": "Point", "coordinates": [2.35048418, 48.85992216]}}, {"type": "Feature", "properties": {"id": "8f93d705-db2b-41ce-a680-92ca64a05153", "name": "Cafe le p", "category": "restaurant", "confidence": 0.9367283950617284, "address": "43 Rue de la B\u00fbcherie"}, "geometry": {"type": "Point", "coordinates": [2.34681802, 48.85276243]}}, {"type": "Feature", "properties": {"id": "fa10cb1c-6e42-4981-8f46-04f44ee5283f", "name": "Milo Pizza", "category": "restaurant", "confidence": 0.9859410355265563, "address": "44 Rue Saint-Honor\u00e9"}, "geometry": {"type": "Point", "coordinates": [2.34436565, 48.86118664]}}, {"type": "Feature", "properties": {"id": "2822df47-bb62-47e3-8b83-e07be4f24f81", "name": "Yogurt Factory (Nantes)", "category": "restaurant", "confidence": 0.77, "address": "10 rue Des Halles"}, "geometry": {"type": "Point", "coordinates": [2.3469371588827936, 48.85972180891248]}}, {"type": "Feature", "properties": {"id": "ff64c4c3-be81-4fb2-80ee-0afee2641074", "name": "Th\u00e9r\u00e8se du Marais", "category": "restaurant", "confidence": 0.9367283950617284, "address": "3 Rue du Bourg-Tibourg"}, "geometry": {"type": "Point", "coordinates": [2.3556663481098, 48.856690902242]}}, {"type": "Feature", "properties": {"id": "f5e1620c-891b-4493-983e-30258258d14f", "name": "Les Embruns", "category": "restaurant", "confidence": 0.77, "address": "4 rue Sauval"}, "geometry": {"type": "Point", "coordinates": [2.3422612153932763, 48.86165810806523]}}, {"type": "Feature", "properties": {"id": "5d751af6-e2fa-4ccc-8ebf-084cc5a8d14d", "name": "Dans Le Noir", "category": "restaurant", "confidence": 0.77, "address": "51 rue Quincampoix"}, "geometry": {"type": "Point", "coordinates": [2.3505316409943253, 48.86139347849555]}}, {"type": "Feature", "properties": {"id": "046dd221-05b9-40aa-a3c0-1fe56980a68c", "name": "La renaissance Bistrot", "category": "restaurant", "confidence": 0.9764705882352941, "address": "112 Rue Championne"}, "geometry": {"type": "Point", "coordinates": [2.3492, 48.8573]}}, {"type": "Feature", "properties": {"id": "1e237640-a66c-4867-b00e-c211d0ed3944", "name": "Wowtea75006", "category": "restaurant", "confidence": 0.9657719329850477, "address": "56 Boulevard Saint-Michel"}, "geometry": {"type": "Point", "coordinates": [2.34106, 48.84807]}}, {"type": "Feature", "properties": {"id": "35c7ccaa-0ff0-4a82-a27a-d87ee12da729", "name": "Beirut Down Town", "category": "restaurant", "confidence": 0.9367283950617284, "address": "30 Rue des Foss\u00e9s Saint-Bernard"}, "geometry": {"type": "Point", "coordinates": [2.354101, 48.848129]}}, {"type": "Feature", "properties": {"id": "6e8a6541-a380-4928-95f1-85fc126cc61a", "name": "Kidology Comedy-Club & Restaurant", "category": "restaurant", "confidence": 0.9388740675067667, "address": "39 Boulevard Saint-Michel"}, "geometry": {"type": "Point", "coordinates": [2.34241605, 48.84928379]}}, {"type": "Feature", "properties": {"id": "b0a4e28d-5fba-4238-a1d1-5816fcd4c9bb", "name": "Idem", "category": "restaurant", "confidence": 0.9367283950617284, "address": "2 Rue de la Coutellerie"}, "geometry": {"type": "Point", "coordinates": [2.350561, 48.85747]}}, {"type": "Feature", "properties": {"id": "bd34f351-8073-4013-a504-e51d0000faeb", "name": "restaurant du soir", "category": "restaurant", "confidence": 0.9388740675067667, "address": "25 Rue Mazarine"}, "geometry": {"type": "Point", "coordinates": [2.33918581, 48.85463018]}}, {"type": "Feature", "properties": {"id": "f46f0853-17cf-4ae7-af6b-30838e850990", "name": "Yakuza Sando", "category": "restaurant", "confidence": 0.77, "address": "5 rue des Quatre Vents"}, "geometry": {"type": "Point", "coordinates": [2.3381038179486033, 48.851677698171166]}}, {"type": "Feature", "properties": {"id": "91f8cc6f-9f9f-4306-a758-e071e309592e", "name": "La Dame de Paris", "category": "restaurant", "confidence": 0.9921275445865609, "address": "11 Rue d'Arcole"}, "geometry": {"type": "Point", "coordinates": [2.3498474, 48.8543003]}}, {"type": "Feature", "properties": {"id": "3140262e-e513-49a9-8ae8-71c46f9c58b3", "name": "Food Merveilles", "category": "restaurant", "confidence": 0.9388740675067667, "address": "63 Rue Dauphine"}, "geometry": {"type": "Point", "coordinates": [2.33858708, 48.85371344]}}, {"type": "Feature", "properties": {"id": "0a423979-6f92-4911-8672-42980f1ca342", "name": "Terrasse Chauff\u00e9e", "category": "restaurant", "confidence": 0.9657719329850477, "address": "7 Place Saint-Michel"}, "geometry": {"type": "Point", "coordinates": [2.344414010310108, 48.8535785587456]}}, {"type": "Feature", "properties": {"id": "e19bce1c-3aa0-4270-89ac-1929730de32b", "name": "AU REVE D'AFRIQUE CHEZ CLARICE", "category": "restaurant", "confidence": 0.77, "address": "148 Rue du Ch\u00e2teau"}, "geometry": {"type": "Point", "coordinates": [2.3476409912109375, 48.85387273165654]}}, {"type": "Feature", "properties": {"id": "c4ead848-b516-453e-8d7f-1ca1cc933981", "name": "Restaurant Paname Caf\u00e9 Paris", "category": "restaurant", "confidence": 0.9367283950617284, "address": "160 Rue Saint-Martin"}, "geometry": {"type": "Point", "coordinates": [2.351895, 48.861939]}}, {"type": "Feature", "properties": {"id": "d10a2601-7ab0-4459-9b8a-ab8eda0730d4", "name": "3m Odeon", "category": "restaurant", "confidence": 0.77, "address": "3 rue Monsieur le Prince"}, "geometry": {"type": "Point", "coordinates": [2.339128191402566, 48.85166479827041]}}, {"type": "Feature", "properties": {"id": "ed9e5124-494f-4def-99cb-6ce1575ec658", "name": "La Kantine", "category": "restaurant", "confidence": 0.9657719329850477, "address": "Le Bhv Marais, 36 Rue de la Verrerie"}, "geometry": {"type": "Point", "coordinates": [2.35336, 48.85749]}}, {"type": "Feature", "properties": {"id": "ef9acbe0-be4f-4e7b-a684-66954e711d49", "name": "Restaurant asiatique", "category": "restaurant", "confidence": 0.9388740675067667, "address": "37 Rue de la Harpe"}, "geometry": {"type": "Point", "coordinates": [2.34423736, 48.85191871]}}, {"type": "Feature", "properties": {"id": "e9ad2e5d-458a-4da9-9acf-a818b51c3ed7", "name": "Epok", "category": "restaurant", "confidence": 0.9367283950617284, "address": "13 Rue des \u00c9couffes"}, "geometry": {"type": "Point", "coordinates": [2.358451, 48.856863]}}, {"type": "Feature", "properties": {"id": "65935860-1566-4685-ab12-2ec8e6bf8d74", "name": "Shwart's", "category": "restaurant", "confidence": 0.9367283950617284, "address": null}, "geometry": {"type": "Point", "coordinates": [2.35716, 48.85648]}}, {"type": "Feature", "properties": {"id": "a52cace3-090d-446d-89c1-68db4434c40c", "name": "B B O Bar", "category": "restaurant", "confidence": 0.9388740675067667, "address": "19 Rue Fran\u00e7ois Miron"}, "geometry": {"type": "Point", "coordinates": [2.35722023, 48.85570686]}}, {"type": "Feature", "properties": {"id": "c5f7aab3-9793-4751-aeb6-7ad86b625795", "name": "Quatre", "category": "restaurant", "confidence": 0.9367283950617284, "address": "18 Rue du Temple"}, "geometry": {"type": "Point", "coordinates": [2.35825, 48.85697]}}, {"type": "Feature", "properties": {"id": "dd8cfefa-51b4-4613-8e29-5c8afdf23601", "name": "Dar Mima", "category": "restaurant", "confidence": 0.9859410355265563, "address": "1 Rue des Foss\u00e9s Saint-Bernard"}, "geometry": {"type": "Point", "coordinates": [2.35702227, 48.8489843]}}, {"type": "Feature", "properties": {"id": "cace29be-0b4a-40fe-90a7-85145dd336ef", "name": "La Braque", "category": "restaurant", "confidence": 0.77, "address": "11 rue de Braque"}, "geometry": {"type": "Point", "coordinates": [2.3562235267927316, 48.86113312574877]}}, {"type": "Feature", "properties": {"id": "b1938f59-a321-477b-a7e7-cb41e5b71e67", "name": "shes_cake", "category": "restaurant", "confidence": 0.9367283950617284, "address": "37 Rue du Roi de Sicile"}, "geometry": {"type": "Point", "coordinates": [2.35638, 48.85667]}}, {"type": "Feature", "properties": {"id": "cb0f74b3-9cee-46ee-a47d-8bd1132b4522", "name": "Pamela Popo", "category": "restaurant", "confidence": 0.9859410355265563, "address": "15 Rue Fran\u00e7ois Miron"}, "geometry": {"type": "Point", "coordinates": [2.35700635, 48.85576325]}}, {"type": "Feature", "properties": {"id": "bbca6a26-5672-4018-a7f5-f019a9fe9990", "name": "Le Willow", "category": "restaurant", "confidence": 0.9367283950617284, "address": "14 Quai De L'Hotel De Ville"}, "geometry": {"type": "Point", "coordinates": [2.357042, 48.853263]}}, {"type": "Feature", "properties": {"id": "0400b091-791b-4434-a347-646c8ff8b6ee", "name": "ALFI  /  Nouvelle tradition", "category": "restaurant", "confidence": 0.9657719329850477, "address": "18 Rue des \u00c9couffes"}, "geometry": {"type": "Point", "coordinates": [2.358324, 48.856342]}}, {"type": "Feature", "properties": {"id": "8ae7a6a6-90db-4727-9b21-51f92473c836", "name": "Au Coeur du Marais", "category": "restaurant", "confidence": 0.77, "address": "56 rue des Archives"}, "geometry": {"type": "Point", "coordinates": [2.356901988387108, 48.859969801450895]}}, {"type": "Feature", "properties": {"id": "670ea10c-88db-4899-9300-cc32d2254688", "name": "Don's Marais", "category": "restaurant", "confidence": 0.9367283950617284, "address": "4 Rue du Tr\u00e9sor"}, "geometry": {"type": "Point", "coordinates": [2.358281, 48.856584]}}, {"type": "Feature", "properties": {"id": "d79e50c0-5aff-43f6-8509-7e5a9e60f5d0", "name": "Fragola Marais", "category": "restaurant", "confidence": 0.9918101462025052, "address": "7 Rue Rambuteau"}, "geometry": {"type": "Point", "coordinates": [2.35615713, 48.8602412]}}, {"type": "Feature", "properties": {"id": "6b2c29c4-cfaa-43d4-974c-3c6d0e29c283", "name": "Diva's kabaret", "category": "restaurant", "confidence": 0.77, "address": "33 rue des Rosiers"}, "geometry": {"type": "Point", "coordinates": [2.358023, 48.857718]}}, {"type": "Feature", "properties": {"id": "590c6fd2-c791-4e01-9b9e-51371938f03b", "name": "Au Pluriel Club", "category": "restaurant", "confidence": 0.77, "address": "13 rue Fran\u00e7ois Miron"}, "geometry": {"type": "Point", "coordinates": [2.356870861656068, 48.85581792516371]}}], "metadata": {"theme": "places", "total": 203, "bbox": [2.3376026000000003, 48.8470698, 2.3585474, 48.8623122], "query_params": {"theme": "places", "category": "restaurant", "clip_to_layer": "Isochrone 5-10min foot", "xmin": 2.3376026000000003, "ymin": 48.8470698, "xmax": 2.3585474, "ymax": 48.8623122}}}